City,Lat,Lon,Date1,Date2,Date3,Date4,Date5,Date6,Date7
Bangkok,13.7563,100.5018,70,72,71,73,74,75,76
Chiang Mai,18.7061,98.9817,65,66,67,68,69,70,71
Phuket,7.8804,98.3923,75,76,77,78,79,80,81
Khon Kaen,16.4322,102.8236,68,69,70,71,72,73,74
Pattaya,12.9236,100.8825,72,73,74,75,76,77,78